header:
  stamp:
    sec: 863
    nanosec: 992000000
  frame_id: ''
name:
- ur_left_shoulder_pan_joint
- ur_left_elbow_joint
- ur_left_wrist_1_joint
- ur_left_shoulder_lift_joint
- ur_left_wrist_2_joint
- ur_left_wrist_3_joint
position:
- -1.3452587453948408
- -2.185098096265029
- -1.02625545553202
- -1.154161861004143
- 1.7593546008281526
- -0.7241801207737382
velocity:
- 2.550592564690887e-07
- 1.357178612909273e-07
- -6.997292231708444e-08
- 2.7508424914752765e-08
- 4.395089379073184e-07
- -3.6890737015737907e-07
effort:
- 0.0
- 0.0
- 0.0
- 0.0
- 0.0
- 0.0
---
header:
  stamp:
    sec: 863
    nanosec: 996000000
  frame_id: ''
name:
- ur_left_shoulder_pan_joint
- ur_left_elbow_joint
- ur_left_wrist_1_joint
- ur_left_shoulder_lift_joint
- ur_left_wrist_2_joint
- ur_left_wrist_3_joint
position:
- -1.3452587501724396
- -2.1850980646296767
- -1.0262554820758663
- -1.154161867694919
- 1.7593546146320973
- -0.72418011373958
velocity:
- 2.60765969380647e-07
- 1.387643231441327e-07
- -7.108044023808742e-08
- 2.6969227412654544e-08
- 4.509756041744144e-07
- -3.755830028513191e-07
effort:
- 0.0
- 0.0
- 0.0
- 0.0
- 0.0
- 0.0
---
header:
  stamp:
    sec: 863
    nanosec: 998000000
  frame_id: ''
name:
- ur_left_shoulder_pan_joint
- ur_left_elbow_joint
- ur_left_wrist_1_joint
- ur_left_shoulder_lift_joint
- ur_left_wrist_2_joint
- ur_left_wrist_3_joint
position:
- -1.345258752554653
- -2.1850980488086904
- -1.0262554953487868
- -1.1541618710410495
- 1.759354621547252
- -0.7241801102301499
velocity:
- 2.625834849640868e-07
- 1.3969352818615978e-07
- -7.135739005547933e-08
- 2.6750445939844605e-08
- 4.546827197769169e-07
- -3.7770325195449733e-07
effort:
- 0.0
- 0.0
- 0.0
- 0.0
- 0.0
- 0.0
---
header:
  stamp:
    sec: 864
    nanosec: 4000000
  frame_id: ''
name:
- ur_left_shoulder_pan_joint
- ur_left_elbow_joint
- ur_left_wrist_1_joint
- ur_left_shoulder_lift_joint
- ur_left_wrist_2_joint
- ur_left_wrist_3_joint
position:
- -1.3452587596864114
- -2.1850980013381403
- -1.026255535169792
- -1.1541618810812067
- 1.7593546423235127
- -0.724180099719347
velocity:
- 2.6574380584668353e-07
- 1.4130385534069482e-07
- -7.182966087133963e-08
- 2.6372975401806105e-08
- 4.61255910889115e-07
- -3.81424453718526e-07
effort:
- 0.0
- 0.0
- 0.0
- 0.0
- 0.0
- 0.0
---
header:
  stamp:
    sec: 864
    nanosec: 10000000
  frame_id: ''
name:
- ur_left_shoulder_pan_joint
- ur_left_elbow_joint
- ur_left_wrist_1_joint
- ur_left_shoulder_lift_joint
- ur_left_wrist_2_joint
- ur_left_wrist_3_joint
position:
- -1.3452587668062574
- -2.1850979538615203
- -1.0262555749925681
- -1.1541618911228009
- 1.7593546631246033
- -0.7241800892225738
velocity:
- 2.670995689752104e-07
- 1.4199493902908471e-07
- -7.203051075817972e-08
- 2.6209126907016767e-08
- 4.640924472136437e-07
- -3.8302338780780807e-07
effort:
- 0.0
- 0.0
- 0.0
- 0.0
- 0.0
- 0.0
---
header:
  stamp:
    sec: 864
    nanosec: 12000000
  frame_id: ''
name:
- ur_left_shoulder_pan_joint
- ur_left_elbow_joint
- ur_left_wrist_1_joint
- ur_left_shoulder_lift_joint
- ur_left_wrist_2_joint
- ur_left_wrist_3_joint
position:
- -1.3452587691782072
- -2.1850979380353017
- -1.0262555882670235
- -1.1541618944701606
- 1.7593546700610831
- -0.7241800857252203
velocity:
- 2.6735043320260944e-07
- 1.4212256885975012e-07
- -7.206716304015795e-08
- 2.6178768548655845e-08
- 4.646176862426446e-07
- -3.8331947794516614e-07
effort:
- 0.0
- 0.0
- 0.0
- 0.0
- 0.0
- 0.0
---
header:
  stamp:
    sec: 864
    nanosec: 18000000
  frame_id: ''
name:
- ur_left_shoulder_pan_joint
- ur_left_elbow_joint
- ur_left_wrist_1_joint
- ur_left_shoulder_lift_joint
- ur_left_wrist_2_joint
- ur_left_wrist_3_joint
position:
- -1.3452587762919852
- -2.185097890555589
- -1.026255628090702
- -1.1541619045124867
- 1.7593546908748552
- -0.7241800752355996
velocity:
- 2.6779084780278505e-07
- 1.4234696155582123e-07
- -7.213202327513697e-08
- 2.6125506053964254e-08
- 4.655396349997946e-07
- -3.8383892941155717e-07
effort:
- 0.0
- 0.0
- 0.0
- 0.0
- 0.0
- 0.0
---
header:
  stamp:
    sec: 864
    nanosec: 20000000
  frame_id: ''
name:
- ur_left_shoulder_pan_joint
- ur_left_elbow_joint
- ur_left_wrist_1_joint
- ur_left_shoulder_lift_joint
- ur_left_wrist_2_joint
- ur_left_wrist_3_joint
position:
- -1.3452587786628123
- -2.185097874728797
- -1.026255641365326
- -1.1541619078599832
- 1.7593546978136816
- -0.7241800717395703
velocity:
- 2.678724090280025e-07
- 1.4238858664377394e-07
- -7.214412766285663e-08
- 2.6115607838973787e-08
- 4.657103081717903e-07
- -3.8393504733142966e-07
effort:
- 0.0
- 0.0
- 0.0
- 0.0
- 0.0
- 0.0
---
header:
  stamp:
    sec: 864
    nanosec: 22000000
  frame_id: ''
name:
- ur_left_shoulder_pan_joint
- ur_left_elbow_joint
- ur_left_wrist_1_joint
- ur_left_shoulder_lift_joint
- ur_left_wrist_2_joint
- ur_left_wrist_3_joint
position:
- -1.3452587810335062
- -2.185097858901938
- -1.0262556546399697
- -1.154161911207494
- 1.7593547047527869
- -0.7241800682436974
velocity:
- 2.6793384921788687e-07
- 1.424200027598e-07
- -7.215362724899347e-08
- 2.61083660613143e-08
- 4.6583935681872467e-07
- -3.840078858897736e-07
effort:
- 0.0
- 0.0
- 0.0
- 0.0
- 0.0
- 0.0
---
header:
  stamp:
    sec: 864
    nanosec: 26000000
  frame_id: ''
name:
- ur_left_shoulder_pan_joint
- ur_left_elbow_joint
- ur_left_wrist_1_joint
- ur_left_shoulder_lift_joint
- ur_left_wrist_2_joint
- ur_left_wrist_3_joint
position:
- -1.3452587857746185
- -2.1850978272480788
- -1.0262556811893013
- -1.154161917902549
- 1.7593547186315712
- -0.7241800612522766
velocity:
- 2.680154177591641e-07
- 1.4246144271856866e-07
- -7.216571904963193e-08
- 2.6098574681446358e-08
- 4.660102065942866e-07
- -3.8410399926782203e-07
effort:
- 0.0
- 0.0
- 0.0
- 0.0
- 0.0
- 0.0
---
header:
  stamp:
    sec: 864
    nanosec: 28000000
  frame_id: ''
name:
- ur_left_shoulder_pan_joint
- ur_left_elbow_joint
- ur_left_wrist_1_joint
- ur_left_shoulder_lift_joint
- ur_left_wrist_2_joint
- ur_left_wrist_3_joint
position:
- -1.345258788145078
- -2.1850978114211
- -1.0262556944639805
- -1.1541619212500864
- 1.7593547255711615
- -0.724180057756679
velocity:
- 2.6804197235282e-07
- 1.4247516007961372e-07
- -7.216981263472508e-08
- 2.6095308370922268e-08
- 4.660654554163132e-07
- -3.841353795502461e-07
effort:
- 0.0
- 0.0
- 0.0
- 0.0
- 0.0
- 0.0
---
header:
  stamp:
    sec: 864
    nanosec: 36000000
  frame_id: ''
name:
- ur_left_shoulder_pan_joint
- ur_left_elbow_joint
- ur_left_wrist_1_joint
- ur_left_shoulder_lift_joint
- ur_left_wrist_2_joint
- ur_left_wrist_3_joint
position:
- -1.3452587962451958
- -2.1850977559149207
- -1.0262557409732747
- -1.15416193298117
- 1.7593547502294582
- -0.7241800457493444
velocity:
- 2.416921657458346e-07
- 9.051822368017726e-08
- -2.7911504875468094e-08
- 2.5803902392842396e-08
- 4.1862037494516574e-07
- -3.592756073694882e-07
effort:
- 0.0
- 0.0
- 0.0
- 0.0
- 0.0
- 0.0
---
header:
  stamp:
    sec: 864
    nanosec: 40000000
  frame_id: ''
name:
- ur_left_shoulder_pan_joint
- ur_left_elbow_joint
- ur_left_wrist_1_joint
- ur_left_shoulder_lift_joint
- ur_left_wrist_2_joint
- ur_left_wrist_3_joint
position:
- -1.3452588010744404
- -2.1850977243018095
- -1.0262557675070276
- -1.154161939673264
- 1.7593547639539233
- -0.7241800386571606
velocity:
- 2.506211848297239e-07
- 1.3351446656540165e-07
- -6.968485794348238e-08
- 2.859696204158916e-08
- 4.315059296004219e-07
- -3.6412908674575416e-07
effort:
- 0.0
- 0.0
- 0.0
- 0.0
- 0.0
- 0.0
---
header:
  stamp:
    sec: 864
    nanosec: 44000000
  frame_id: ''
name:
- ur_left_shoulder_pan_joint
- ur_left_elbow_joint
- ur_left_wrist_1_joint
- ur_left_shoulder_lift_joint
- ur_left_wrist_2_joint
- ur_left_wrist_3_joint
position:
- -1.3452588058642996
- -2.1850976926733203
- -1.0262557940483141
- -1.1541619463627095
- 1.7593547777332175
- -0.7241800316087499
velocity:
- 2.5830573210017686e-07
- 1.375551191884484e-07
- -7.073141364007309e-08
- 2.7245100372846505e-08
- 4.461100559861612e-07
- -3.7273765669272764e-07
effort:
- 0.0
- 0.0
- 0.0
- 0.0
- 0.0
- 0.0
---
header:
  stamp:
    sec: 864
    nanosec: 48000000
  frame_id: ''
name:
- ur_left_shoulder_pan_joint
- ur_left_elbow_joint
- ur_left_wrist_1_joint
- ur_left_shoulder_lift_joint
- ur_left_wrist_2_joint
- ur_left_wrist_3_joint
position:
- -1.345258810632656
- -2.1850976610333372
- -1.0262558205935903
- -1.1541619530544927
- 1.7593547915555865
- -0.7241800245853343
velocity:
- 2.6258370382880284e-07
- 1.396933062403379e-07
- -7.135758897947212e-08
- 2.6750528106482008e-08
- 4.546825868532651e-07
- -3.777032433419708e-07
effort:
- 0.0
- 0.0
- 0.0
- 0.0
- 0.0
- 0.0
---
header:
  stamp:
    sec: 864
    nanosec: 50000000
  frame_id: ''
name:
- ur_left_shoulder_pan_joint
- ur_left_elbow_joint
- ur_left_wrist_1_joint
- ur_left_shoulder_lift_joint
- ur_left_wrist_2_joint
- ur_left_wrist_3_joint
position:
- -1.345258813011935
- -2.185097645210851
- -1.0262558338669656
- -1.1541619564009677
- 1.7593547984767914
- -0.724180021079353
velocity:
- 2.639452766962573e-07
- 1.403873447407413e-07
- -7.156294899318562e-08
- 2.658992210993655e-08
- 4.5750465669600656e-07
- -3.7930512025202677e-07
effort:
- 0.0
- 0.0
- 0.0
- 0.0
- 0.0
- 0.0
---
header:
  stamp:
    sec: 864
    nanosec: 54000000
  frame_id: ''
name:
- ur_left_shoulder_pan_joint
- ur_left_elbow_joint
- ur_left_wrist_1_joint
- ur_left_shoulder_lift_joint
- ur_left_wrist_2_joint
- ur_left_wrist_3_joint
position:
- -1.3452588177644107
- -2.18509761356278
- -1.026255860414624
- -1.154161963094648
- 1.75935481233184
- -0.7241800140745456
velocity:
- 2.6574417029661896e-07
- 1.41304187383688e-07
- -7.182983941849979e-08
- 2.6372709345556227e-08
- 4.61255370437825e-07
- -3.8142422563899245e-07
effort:
- 0.0
- 0.0
- 0.0
- 0.0
- 0.0
- 0.0
---
header:
  stamp:
    sec: 864
    nanosec: 60000000
  frame_id: ''
name:
- ur_left_shoulder_pan_joint
- ur_left_elbow_joint
- ur_left_wrist_1_joint
- ur_left_shoulder_lift_joint
- ur_left_wrist_2_joint
- ur_left_wrist_3_joint
position:
- -1.3452588248842532
- -2.185097566086153
- -1.026255900237432
- -1.1541619731362422
- 1.7593548331329254
- -0.7241800035777874
velocity:
- 2.6709982961863625e-07
- 1.419947016895867e-07
- -7.203049008178207e-08
- 2.620941155441172e-08
- 4.640921079261261e-07
- -3.8302331325384534e-07
effort:
- 0.0
- 0.0
- 0.0
- 0.0
- 0.0
- 0.0
---
header:
  stamp:
    sec: 864
    nanosec: 64000000
  frame_id: ''
name:
- ur_left_shoulder_pan_joint
- ur_left_elbow_joint
- ur_left_wrist_1_joint
- ur_left_shoulder_lift_joint
- ur_left_wrist_2_joint
- ur_left_wrist_3_joint
position:
- -1.3452588296277423
- -2.1850975344335017
- -1.0262559267864244
- -1.1541619798310114
- 1.7593548470067324
- -0.7241799965835707
velocity:
- 2.675401767620894e-07
- 1.4221904440162105e-07
- -7.20953128601365e-08
- 2.615576265337295e-08
- 4.65013855438193e-07
- -3.8354261501887424e-07
effort:
- 0.0
- 0.0
- 0.0
- 0.0
- 0.0
- 0.0
---
header:
  stamp:
    sec: 864
    nanosec: 70000000
  frame_id: ''
name:
- ur_left_shoulder_pan_joint
- ur_left_elbow_joint
- ur_left_wrist_1_joint
- ur_left_shoulder_lift_joint
- ur_left_wrist_2_joint
- ur_left_wrist_3_joint
position:
- -1.345258836740801
- -2.185097486953416
- -1.0262559666102415
- -1.1541619898734246
- 1.7593548678219912
- -0.7241799860948097
velocity:
- 2.678726498106787e-07
- 1.4238863937025624e-07
- -7.214481005448979e-08
- 2.6115742463393393e-08
- 4.6571003279019017e-07
- -3.839348802594748e-07
effort:
- 0.0
- 0.0
- 0.0
- 0.0
- 0.0
- 0.0
---
header:
  stamp:
    sec: 864
    nanosec: 74000000
  frame_id: ''
name:
- ur_left_shoulder_pan_joint
- ur_left_elbow_joint
- ur_left_wrist_1_joint
- ur_left_shoulder_lift_joint
- ur_left_wrist_2_joint
- ur_left_wrist_3_joint
position:
- -1.3452588414820874
- -2.1850974552996423
- -1.0262559931595643
- -1.1541619965684584
- 1.759354881700406
- -0.7241799791031909
velocity:
- 2.679806241343064e-07
- 1.4244350489951612e-07
- -7.216062881556587e-08
- 2.610294160095297e-08
- 4.659363503560987e-07
- -3.840621993008675e-07
effort:
- 0.0
- 0.0
- 0.0
- 0.0
- 0.0
- 0.0
---
header:
  stamp:
    sec: 864
    nanosec: 80000000
  frame_id: ''
name:
- ur_left_shoulder_pan_joint
- ur_left_elbow_joint
- ur_left_wrist_1_joint
- ur_left_shoulder_lift_joint
- ur_left_wrist_2_joint
- ur_left_wrist_3_joint
position:
- -1.345258847140292
- -2.185097414111926
- -1.026256027560823
- -1.1541620052824444
- 1.759354901139237
- -0.7241799707444985
velocity:
- 1.7241898227048067e-06
- -6.161707575538313e-06
- 5.36043114933507e-06
- 1.3565648864604983e-06
- -9.166512375575439e-07
- -2.5157262965804785e-06
effort:
- 0.0
- 0.0
- 0.0
- 0.0
- 0.0
- 0.0
---
header:
  stamp:
    sec: 864
    nanosec: 84000000
  frame_id: ''
name:
- ur_left_shoulder_pan_joint
- ur_left_elbow_joint
- ur_left_wrist_1_joint
- ur_left_shoulder_lift_joint
- ur_left_wrist_2_joint
- ur_left_wrist_3_joint
position:
- -1.3452588518886857
- -2.185097383843864
- -1.0262560530385905
- -1.154162011661134
- 1.759354913398842
- -0.7241799636490409
velocity:
- 1.7364704992963712e-07
- 2.2010326587554302e-07
- -1.7508588594536888e-07
- 4.029257043597889e-08
- 4.030153653122827e-07
- -2.99611986203649e-07
effort:
- 0.0
- 0.0
- 0.0
- 0.0
- 0.0
- 0.0
---
header:
  stamp:
    sec: 864
    nanosec: 90000000
  frame_id: ''
name:
- ur_left_shoulder_pan_joint
- ur_left_elbow_joint
- ur_left_wrist_1_joint
- ur_left_shoulder_lift_joint
- ur_left_wrist_2_joint
- ur_left_wrist_3_joint
position:
- -1.3452588591524184
- -2.185097336526404
- -1.0262560927520408
- -1.1541620216867055
- 1.7593549339622117
- -0.7241799530124462
velocity:
- 2.506213866972781e-07
- 1.3351455660977284e-07
- -6.968495064158403e-08
- 2.8596959576960073e-08
- 4.315057129330127e-07
- -3.641291201270458e-07
effort:
- 0.0
- 0.0
- 0.0
- 0.0
- 0.0
- 0.0
---
header:
  stamp:
    sec: 864
    nanosec: 94000000
  frame_id: ''
name:
- ur_left_shoulder_pan_joint
- ur_left_elbow_joint
- ur_left_wrist_1_joint
- ur_left_shoulder_lift_joint
- ur_left_wrist_2_joint
- ur_left_wrist_3_joint
position:
- -1.3452588639422758
- -2.1850973048979094
- -1.0262561192933486
- -1.154162028376151
- 1.759354947741504
- -0.7241799459640443
velocity:
- 2.583059165861996e-07
- 1.3755515110051484e-07
- -7.073164581395068e-08
- 2.724527946457974e-08
- 4.4610980466079776e-07
- -3.727374873804181e-07
effort:
- 0.0
- 0.0
- 0.0
- 0.0
- 0.0
- 0.0
---
header:
  stamp:
    sec: 864
    nanosec: 98000000
  frame_id: ''
name:
- ur_left_shoulder_pan_joint
- ur_left_elbow_joint
- ur_left_wrist_1_joint
- ur_left_shoulder_lift_joint
- ur_left_wrist_2_joint
- ur_left_wrist_3_joint
position:
- -1.3452588687106304
- -2.185097273257921
- -1.0262561458386443
- -1.1541620350679322
- 1.7593549615638677
- -0.7241799389406403
velocity:
- 2.6258383066796784e-07
- 1.396933909500993e-07
- -7.135770359615538e-08
- 2.6750687713966025e-08
- 4.5468237555713643e-07
- -3.7770326083999894e-07
effort:
- 0.0
- 0.0
- 0.0
- 0.0
- 0.0
- 0.0
---
header:
  stamp:
    sec: 864
    nanosec: 102000000
  frame_id: ''
name:
- ur_left_shoulder_pan_joint
- ur_left_elbow_joint
- ur_left_wrist_1_joint
- ur_left_shoulder_lift_joint
- ur_left_wrist_2_joint
- ur_left_wrist_3_joint
position:
- -1.3452588734669768
- -2.1850972416118184
- -1.0262561723857466
- -1.1541620417611471
- 1.759354975410857
- -0.7241799319312854
velocity:
- 2.6497113472704237e-07
- 1.4090992145044525e-07
- -7.171529491639293e-08
- 2.646634016869378e-08
- 4.5964054581712074e-07
- -3.8051303729557275e-07
effort:
- 0.0
- 0.0
- 0.0
- 0.0
- 0.0
- 0.0
---
header:
  stamp:
    sec: 864
    nanosec: 106000000
  frame_id: ''
name:
- ur_left_shoulder_pan_joint
- ur_left_elbow_joint
- ur_left_wrist_1_joint
- ur_left_shoulder_lift_joint
- ur_left_wrist_2_joint
- ur_left_wrist_3_joint
position:
- -1.3452588782165322
- -2.1850972099622545
- -1.0262561989338597
- -1.1541620484551809
- 1.7593549892719915
- -0.7241799249299268
velocity:
- 2.6632767582860597e-07
- 1.4160133079729383e-07
- -7.19163108962043e-08
- 2.630248938250818e-08
- 4.6247487595898385e-07
- -3.8211192325073384e-07
effort:
- 0.0
- 0.0
- 0.0
- 0.0
- 0.0
- 0.0
---
header:
  stamp:
    sec: 864
    nanosec: 112000000
  frame_id: ''
name:
- ur_left_shoulder_pan_joint
- ur_left_elbow_joint
- ur_left_wrist_1_joint
- ur_left_shoulder_lift_joint
- ur_left_wrist_2_joint
- ur_left_wrist_3_joint
position:
- -1.3452588853341685
- -2.185097162484496
- -1.026256238757023
- -1.1541620584970416
- 1.7593550100776705
- -0.7241799144357799
velocity:
- 2.673509516858124e-07
- 1.4212281954934675e-07
- -7.206754713942184e-08
- 2.617875000507818e-08
- 4.646171591912385e-07
- -3.83319128207877e-07
effort:
- 0.0
- 0.0
- 0.0
- 0.0
- 0.0
- 0.0
---
header:
  stamp:
    sec: 864
    nanosec: 116000000
  frame_id: ''
name:
- ur_left_shoulder_pan_joint
- ur_left_elbow_joint
- ur_left_wrist_1_joint
- ur_left_shoulder_lift_joint
- ur_left_wrist_2_joint
- ur_left_wrist_3_joint
position:
- -1.3452588900769382
- -2.185097130831476
- -1.026256265306145
- -1.154162065191896
- 1.7593550239529696
- -0.7241799074424158
velocity:
- 2.6768337763604815e-07
- 1.4229204238026587e-07
- -7.211668273191992e-08
- 2.6138632084484454e-08
- 4.653129887431106e-07
- -3.837111633623056e-07
effort:
- 0.0
- 0.0
- 0.0
- 0.0
- 0.0
- 0.0
---
header:
  stamp:
    sec: 864
    nanosec: 120000000
  frame_id: ''
name:
- ur_left_shoulder_pan_joint
- ur_left_elbow_joint
- ur_left_wrist_1_joint
- ur_left_shoulder_lift_joint
- ur_left_wrist_2_joint
- ur_left_wrist_3_joint
position:
- -1.345258894818763
- -2.1850970991779715
- -1.0262562918554075
- -1.1541620718868641
- 1.7593550378302494
- -0.7241799004501699
velocity:
- 2.6787291057241237e-07
- 1.4238883387874734e-07
- -7.214460397746021e-08
- 2.6115631806081305e-08
- 4.657097314174352e-07
- -3.839345708806585e-07
effort:
- 0.0
- 0.0
- 0.0
- 0.0
- 0.0
- 0.0
---
header:
  stamp:
    sec: 864
    nanosec: 124000000
  frame_id: ''
name:
- ur_left_shoulder_pan_joint
- ur_left_elbow_joint
- ur_left_wrist_1_joint
- ur_left_shoulder_lift_joint
- ur_left_wrist_2_joint
- ur_left_wrist_3_joint
position:
- -1.345258899560044
- -2.1850970675241923
- -1.0262563184047515
- -1.1541620785818962
- 1.7593550517086571
- -0.7241798934585608
velocity:
- 2.6798095349793336e-07
- 1.4244384444293885e-07
- -7.21608146252024e-08
- 2.6102579243797632e-08
- 4.6593581406550716e-07
- -3.840620270185047e-07
effort:
- 0.0
- 0.0
- 0.0
- 0.0
- 0.0
- 0.0
---
header:
  stamp:
    sec: 864
    nanosec: 128000000
  frame_id: ''
name:
- ur_left_shoulder_pan_joint
- ur_left_elbow_joint
- ur_left_wrist_1_joint
- ur_left_shoulder_lift_joint
- ur_left_wrist_2_joint
- ur_left_wrist_3_joint
position:
- -1.3452589043010215
- -2.185097035870255
- -1.0262563449541435
- -1.1541620852769674
- 1.7593550655877115
- -0.7241798864673168
velocity:
- 2.6804249774750754e-07
- 1.4247506724485363e-07
- -7.217004908508091e-08
- 2.6095312471429958e-08
- 4.6606478314665287e-07
- -3.841347896870324e-07
effort:
- 0.0
- 0.0
- 0.0
- 0.0
- 0.0
- 0.0
---
header:
  stamp:
    sec: 864
    nanosec: 130000000
  frame_id: ''
name:
- ur_left_shoulder_pan_joint
- ur_left_elbow_joint
- ur_left_wrist_1_joint
- ur_left_shoulder_lift_joint
- ur_left_wrist_2_joint
- ur_left_wrist_3_joint
position:
- -1.3452589052182478
- -2.1850970263364697
- -1.026256352806035
- -1.154162087295884
- 1.7593550711474828
- -0.7241798850998817
velocity:
- 1.724190073943315e-06
- -6.161708611671891e-06
- 5.360435261651062e-06
- 1.3565650640522488e-06
- -9.166517093693307e-07
- -2.5157233369380634e-06
effort:
- 0.0
- 0.0
- 0.0
- 0.0
- 0.0
- 0.0
---
header:
  stamp:
    sec: 864
    nanosec: 136000000
  frame_id: ''
name:
- ur_left_shoulder_pan_joint
- ur_left_elbow_joint
- ur_left_wrist_1_joint
- ur_left_shoulder_lift_joint
- ur_left_wrist_2_joint
- ur_left_wrist_3_joint
position:
- -1.3452589124011278
- -2.1850969803640563
- -1.0262563914635088
- -1.1541620970080493
- 1.759355090245994
- -0.7241798744600176
velocity:
- 2.4169262282375815e-07
- 9.051836409516231e-08
- -2.791153283936065e-08
- 2.580380560047569e-08
- 4.1861994027633277e-07
- -3.59275153704375e-07
effort:
- 0.0
- 0.0
- 0.0
- 0.0
- 0.0
- 0.0
---
header:
  stamp:
    sec: 864
    nanosec: 140000000
  frame_id: ''
name:
- ur_left_shoulder_pan_joint
- ur_left_elbow_joint
- ur_left_wrist_1_joint
- ur_left_shoulder_lift_joint
- ur_left_wrist_2_joint
- ur_left_wrist_3_joint
position:
- -1.345258917230367
- -2.1850969487509353
- -1.0262564179973008
- -1.1541621037001433
- 1.7593551039704485
- -0.7241798673678543
velocity:
- 2.506217262449235e-07
- 1.335147860102534e-07
- -6.968528772789164e-08
- 2.8597009779858732e-08
- 4.3150548447371134e-07
- -3.641286792184399e-07
effort:
- 0.0
- 0.0
- 0.0
- 0.0
- 0.0
- 0.0
---
header:
  stamp:
    sec: 864
    nanosec: 144000000
  frame_id: ''
name:
- ur_left_shoulder_pan_joint
- ur_left_elbow_joint
- ur_left_wrist_1_joint
- ur_left_shoulder_lift_joint
- ur_left_wrist_2_joint
- ur_left_wrist_3_joint
position:
- -1.345258922020221
- -2.1850969171224364
- -1.02625644453863
- -1.1541621103895887
- 1.7593551177497337
- -0.7241798603194631
velocity:
- 2.583062353353279e-07
- 1.3755522656438082e-07
- -7.073171539048935e-08
- 2.724515557877955e-08
- 4.461096212481489e-07
- -3.7273730386192447e-07
effort:
- 0.0
- 0.0
- 0.0
- 0.0
- 0.0
- 0.0
---
header:
  stamp:
    sec: 864
    nanosec: 150000000
  frame_id: ''
name:
- ur_left_shoulder_pan_joint
- ur_left_elbow_joint
- ur_left_wrist_1_joint
- ur_left_shoulder_lift_joint
- ur_left_wrist_2_joint
- ur_left_wrist_3_joint
position:
- -1.3452589291678492
- -2.185096869659951
- -1.0262564843573436
- -1.1541621204278452
- 1.759355138493297
- -0.7241798497900955
velocity:
- 2.6394582816067456e-07
- 1.4038742146049835e-07
- -7.156318888799368e-08
- 2.658996035550852e-08
- 4.575040433511804e-07
- -3.793047137683145e-07
effort:
- 0.0
- 0.0
- 0.0
- 0.0
- 0.0
- 0.0
---
header:
  stamp:
    sec: 864
    nanosec: 154000000
  frame_id: ''
name:
- ur_left_shoulder_pan_joint
- ur_left_elbow_joint
- ur_left_wrist_1_joint
- ur_left_shoulder_lift_joint
- ur_left_wrist_2_joint
- ur_left_wrist_3_joint
position:
- -1.3452589339203214
- -2.1850968380118703
- -1.0262565109050428
- -1.1541621271215254
- 1.7593551523483368
- -0.7241798427853086
velocity:
- 2.6574460762790095e-07
- 1.4130415164200198e-07
- -7.183004232902349e-08
- 2.6372825953069178e-08
- 4.6125489503208487e-07
- -3.8142399786854396e-07
effort:
- 0.0
- 0.0
- 0.0
- 0.0
- 0.0
- 0.0
---
header:
  stamp:
    sec: 864
    nanosec: 158000000
  frame_id: ''
name:
- ur_left_shoulder_pan_joint
- ur_left_elbow_joint
- ur_left_wrist_1_joint
- ur_left_shoulder_lift_joint
- ur_left_wrist_2_joint
- ur_left_wrist_3_joint
position:
- -1.3452589386676705
- -2.1850968063611784
- -1.0262565374535022
- -1.1541621338158257
- 1.7593551662140596
- -0.724179835786555
velocity:
- 2.667681046529621e-07
- 1.4182570599105566e-07
- -7.198154384770303e-08
- 2.6249080866731643e-08
- 4.6339584561429915e-07
- -3.8263088827292855e-07
effort:
- 0.0
- 0.0
- 0.0
- 0.0
- 0.0
- 0.0
---
header:
  stamp:
    sec: 864
    nanosec: 162000000
  frame_id: ''
name:
- ur_left_shoulder_pan_joint
- ur_left_elbow_joint
- ur_left_wrist_1_joint
- ur_left_shoulder_lift_joint
- ur_left_wrist_2_joint
- ur_left_wrist_3_joint
position:
- -1.345258943412103
- -2.1850967747090007
- -1.0262565640023968
- -1.1541621405104794
- 1.7593551800858789
- -0.7241798287912404
velocity:
- 2.673513069667265e-07
- 1.421229105097353e-07
- -7.206791244063108e-08
- 2.6178736670504648e-08
- 4.646167113586937e-07
- -3.833186416580157e-07
effort:
- 0.0
- 0.0
- 0.0
- 0.0
- 0.0
- 0.0
---
header:
  stamp:
    sec: 864
    nanosec: 166000000
  frame_id: ''
name:
- ur_left_shoulder_pan_joint
- ur_left_elbow_joint
- ur_left_wrist_1_joint
- ur_left_shoulder_lift_joint
- ur_left_wrist_2_joint
- ur_left_wrist_3_joint
position:
- -1.3452589481548727
- -2.185096743055974
- -1.0262565905515384
- -1.154162147205332
- 1.7593551939611745
- -0.7241798217978861
velocity:
- 2.6768369144364454e-07
- 1.4229234709531228e-07
- -7.211700906410405e-08
- 2.6138514377763053e-08
- 4.6531248571696086e-07
- -3.8371095372561157e-07
effort:
- 0.0
- 0.0
- 0.0
- 0.0
- 0.0
- 0.0
---
header:
  stamp:
    sec: 864
    nanosec: 170000000
  frame_id: ''
name:
- ur_left_shoulder_pan_joint
- ur_left_elbow_joint
- ur_left_wrist_1_joint
- ur_left_shoulder_lift_joint
- ur_left_wrist_2_joint
- ur_left_wrist_3_joint
position:
- -1.345258952896692
- -2.1850967114024646
- -1.026256617100822
- -1.154162153900302
- 1.759355207838449
- -0.7241798148056509
velocity:
- 2.6787310472720607e-07
- 1.4238869155466701e-07
- -7.214497368299363e-08
- 2.6115682113859173e-08
- 4.6570937499540587e-07
- -3.8393471451173964e-07
effort:
- 0.0
- 0.0
- 0.0
- 0.0
- 0.0
- 0.0
---
header:
  stamp:
    sec: 864
    nanosec: 174000000
  frame_id: ''
name:
- ur_left_shoulder_pan_joint
- ur_left_elbow_joint
- ur_left_wrist_1_joint
- ur_left_shoulder_lift_joint
- ur_left_wrist_2_joint
- ur_left_wrist_3_joint
position:
- -1.3452589576379732
- -2.18509667974868
- -1.0262566436501874
- -1.154162160595334
- 1.7593552217168549
- -0.7241798078140524
velocity:
- 2.6798118572354555e-07
- 1.424436856857589e-07
- -7.216084436188303e-08
- 2.6102743792469096e-08
- 4.65935653620373e-07
- -3.8406171977426906e-07
effort:
- 0.0
- 0.0
- 0.0
- 0.0
- 0.0
- 0.0
---
header:
  stamp:
    sec: 864
    nanosec: 180000000
  frame_id: ''
name:
- ur_left_shoulder_pan_joint
- ur_left_elbow_joint
- ur_left_wrist_1_joint
- ur_left_shoulder_lift_joint
- ur_left_wrist_2_joint
- ur_left_wrist_3_joint
position:
- -1.3452589632961724
- -2.1850966385609514
- -1.0262566780514994
- -1.15416216930932
- 1.7593552411556717
- -0.7241797994553849
velocity:
- 1.7241903486452376e-06
- -6.161709634589973e-06
- 5.360438731131998e-06
- 1.3565650704241234e-06
- -9.166520556077907e-07
- -2.5157205074929404e-06
effort:
- 0.0
- 0.0
- 0.0
- 0.0
- 0.0
- 0.0
---
header:
  stamp:
    sec: 864
    nanosec: 184000000
  frame_id: ''
name:
- ur_left_shoulder_pan_joint
- ur_left_elbow_joint
- ur_left_wrist_1_joint
- ur_left_shoulder_lift_joint
- ur_left_wrist_2_joint
- ur_left_wrist_3_joint
position:
- -1.3452589680445608
- -2.1850966082928798
- -1.0262567035293042
- -1.1541621756880096
- 1.7593552534152694
- -0.724179792359946
velocity:
- 1.736474376317096e-07
- 2.2010334792337741e-07
- -1.7508620174004646e-07
- 4.0292664365826265e-08
- 4.030149676051335e-07
- -2.9961194813323775e-07
effort:
- 0.0
- 0.0
- 0.0
- 0.0
- 0.0
- 0.0
---
header:
  stamp:
    sec: 864
    nanosec: 188000000
  frame_id: ''
name:
- ur_left_shoulder_pan_joint
- ur_left_elbow_joint
- ur_left_wrist_1_joint
- ur_left_shoulder_lift_joint
- ur_left_wrist_2_joint
- ur_left_wrist_3_joint
position:
- -1.3452589728997864
- -2.1850965767854786
- -1.0262567299712675
- -1.1541621823712325
- 1.7593552671112755
- -0.7241797852623444
velocity:
- 2.4389485460239694e-07
- 1.3568005404139092e-07
- -7.19538916102652e-08
- 2.6750059952209932e-08
- 4.2603881531113734e-07
- -3.564027413163143e-07
effort:
- 0.0
- 0.0
- 0.0
- 0.0
- 0.0
- 0.0
---
header:
  stamp:
    sec: 864
    nanosec: 192000000
  frame_id: ''
name:
- ur_left_shoulder_pan_joint
- ur_left_elbow_joint
- ur_left_wrist_1_joint
- ur_left_shoulder_lift_joint
- ur_left_wrist_2_joint
- ur_left_wrist_3_joint
position:
- -1.3452589777066897
- -2.1850965451632707
- -1.0262567565126108
- -1.1541621890578997
- 1.7593552808611959
- -0.7241797781951433
velocity:
- 2.550602056329794e-07
- 1.3571817585849547e-07
- -6.997380418547248e-08
- 2.7508555032481297e-08
- 4.3950786124013757e-07
- -3.689067976295455e-07
effort:
- 0.0
- 0.0
- 0.0
- 0.0
- 0.0
- 0.0
---
header:
  stamp:
    sec: 864
    nanosec: 196000000
  frame_id: ''
name:
- ur_left_shoulder_pan_joint
- ur_left_elbow_joint
- ur_left_wrist_1_joint
- ur_left_shoulder_lift_joint
- ur_left_wrist_2_joint
- ur_left_wrist_3_joint
position:
- -1.3452589824842796
- -2.1850965135278972
- -1.0262567830565388
- -1.1541621957486774
- 1.759355294665121
- -0.724179771161026
velocity:
- 2.6076688194519034e-07
- 1.387645984628559e-07
- -7.108161932767645e-08
- 2.6969424007113678e-08
- 4.509744472171449e-07
- -3.755823582071827e-07
effort:
- 0.0
- 0.0
- 0.0
- 0.0
- 0.0
- 0.0
---
header:
  stamp:
    sec: 864
    nanosec: 202000000
  frame_id: ''
name:
- ur_left_shoulder_pan_joint
- ur_left_elbow_joint
- ur_left_wrist_1_joint
- ur_left_shoulder_lift_joint
- ur_left_wrist_2_joint
- ur_left_wrist_3_joint
position:
- -1.3452589896228306
- -2.185096466060788
- -1.026256822876645
- -1.1541622057880228
- 1.759355315427249
- -0.7241797606422802
velocity:
- 2.649717863600537e-07
- 1.4090999627681822e-07
- -7.171585387626043e-08
- 2.6466472706107472e-08
- 4.596398712690094e-07
- -3.805123101519174e-07
effort:
- 0.0
- 0.0
- 0.0
- 0.0
- 0.0
- 0.0
---
header:
  stamp:
    sec: 864
    nanosec: 206000000
  frame_id: ''
name:
- ur_left_shoulder_pan_joint
- ur_left_elbow_joint
- ur_left_wrist_1_joint
- ur_left_shoulder_lift_joint
- ur_left_wrist_2_joint
- ur_left_wrist_3_joint
position:
- -1.3452589943723807
- -2.1850964344112143
- -1.026256849424799
- -1.1541622124820548
- 1.759355329288371
- -0.7241797536409411
velocity:
- 2.663281868197851e-07
- 1.4160123757523374e-07
- -7.191645676250924e-08
- 2.630264480654713e-08
- 4.624742159422406e-07
- -3.8211133692626145e-07
effort:
- 0.0
- 0.0
- 0.0
- 0.0
- 0.0
- 0.0
---
header:
  stamp:
    sec: 864
    nanosec: 208000000
  frame_id: ''
name:
- ur_left_shoulder_pan_joint
- ur_left_elbow_joint
- ur_left_wrist_1_joint
- ur_left_shoulder_lift_joint
- ur_left_wrist_2_joint
- ur_left_wrist_3_joint
position:
- -1.3452589967455792
- -2.1850964185856245
- -1.0262568626991087
- -1.1541622158292617
- 1.75935533622222
- -0.7241797501421274
velocity:
- 2.6676830408386435e-07
- 1.418256509471331e-07
- -7.198152702270966e-08
- 2.624919869513391e-08
- 4.633955047627846e-07
- -3.8263071881635245e-07
effort:
- 0.0
- 0.0
- 0.0
- 0.0
- 0.0
- 0.0
---
header:
  stamp:
    sec: 864
    nanosec: 212000000
  frame_id: ''
name:
- ur_left_shoulder_pan_joint
- ur_left_elbow_joint
- ur_left_wrist_1_joint
- ur_left_shoulder_lift_joint
- ur_left_wrist_2_joint
- ur_left_wrist_3_joint
position:
- -1.3452590014900099
- -2.1850963869334414
- -1.0262568892480228
- -1.1541622225239137
- 1.7593553500940375
- -0.7241797431468227
velocity:
- 2.6735159830059706e-07
- 1.4212284271823673e-07
- -7.206778943980547e-08
- 2.617864712489687e-08
- 4.6461619871246256e-07
- -3.8331850075648383e-07
effort:
- 0.0
- 0.0
- 0.0
- 0.0
- 0.0
- 0.0
---
header:
  stamp:
    sec: 864
    nanosec: 216000000
  frame_id: ''
name:
- ur_left_shoulder_pan_joint
- ur_left_elbow_joint
- ur_left_wrist_1_joint
- ur_left_shoulder_lift_joint
- ur_left_wrist_2_joint
- ur_left_wrist_3_joint
position:
- -1.345259006232776
- -2.18509635528041
- -1.026256915797184
- -1.154162229218768
- 1.759355363969326
- -0.724179736153479
velocity:
- 2.676838958218292e-07
- 1.4229234843886387e-07
- -7.211734138968725e-08
- 2.6138727235665294e-08
- 4.653125684561085e-07
- -3.8371085320632194e-07
effort:
- 0.0
- 0.0
- 0.0
- 0.0
- 0.0
- 0.0
---
header:
  stamp:
    sec: 864
    nanosec: 220000000
  frame_id: ''
name:
- ur_left_shoulder_pan_joint
- ur_left_elbow_joint
- ur_left_wrist_1_joint
- ur_left_shoulder_lift_joint
- ur_left_wrist_2_joint
- ur_left_wrist_3_joint
position:
- -1.3452590109745937
- -2.1850963236268957
- -1.026256942346489
- -1.1541622359137362
- 1.759355377846597
- -0.7241797291612526
velocity:
- 2.6787338335463186e-07
- 1.4238889709807958e-07
- -7.214521661473597e-08
- 2.611571866544939e-08
- 4.657091450730408e-07
- -3.839341707748298e-07
effort:
- 0.0
- 0.0
- 0.0
- 0.0
- 0.0
- 0.0
---
header:
  stamp:
    sec: 864
    nanosec: 224000000
  frame_id: ''
name:
- ur_left_shoulder_pan_joint
- ur_left_elbow_joint
- ur_left_wrist_1_joint
- ur_left_shoulder_lift_joint
- ur_left_wrist_2_joint
- ur_left_wrist_3_joint
position:
- -1.345259015715873
- -2.185096291973105
- -1.0262569688958738
- -1.1541622426087683
- 1.7593553917249993
- -0.724179722169664
velocity:
- 2.679814641323476e-07
- 1.4244416245509363e-07
- -7.21612348579903e-08
- 2.6102519846285243e-08
- 4.65935261864579e-07
- -3.8406153249271437e-07
effort:
- 0.0
- 0.0
- 0.0
- 0.0
- 0.0
- 0.0
---
header:
  stamp:
    sec: 864
    nanosec: 228000000
  frame_id: ''
name:
- ur_left_shoulder_pan_joint
- ur_left_elbow_joint
- ur_left_wrist_1_joint
- ur_left_shoulder_lift_joint
- ur_left_wrist_2_joint
- ur_left_wrist_3_joint
position:
- -1.3452590204568433
- -2.185096260319158
- -1.0262569954453067
- -1.1541622493038395
- 1.7593554056040448
- -0.7241797151784386
velocity:
- 2.6804308416667525e-07
- 1.4247539848769867e-07
- -7.217029364030093e-08
- 2.6095016437938058e-08
- 4.660641147071436e-07
- -3.8413437359369304e-07
effort:
- 0.0
- 0.0
- 0.0
- 0.0
- 0.0
- 0.0
---
header:
  stamp:
    sec: 864
    nanosec: 232000000
  frame_id: ''
name:
- ur_left_shoulder_pan_joint
- ur_left_elbow_joint
- ur_left_wrist_1_joint
- ur_left_shoulder_lift_joint
- ur_left_wrist_2_joint
- ur_left_wrist_3_joint
position:
- -1.3452590234564403
- -2.185096236873383
- -1.0262570149544814
- -1.1541622543170738
- 1.7593554166733787
- -0.7241797105501977
velocity:
- 9.886061583105748e-08
- 4.380002393779248e-07
- -3.574356422146579e-07
- -4.291591714767436e-08
- 5.8535966268395755e-08
- -8.778599153614892e-08
effort:
- 0.0
- 0.0
- 0.0
- 0.0
- 0.0
- 0.0
---
header:
  stamp:
    sec: 864
    nanosec: 238000000
  frame_id: ''
name:
- ur_left_shoulder_pan_joint
- ur_left_elbow_joint
- ur_left_wrist_1_joint
- ur_left_shoulder_lift_joint
- ur_left_wrist_2_joint
- ur_left_wrist_3_joint
position:
- -1.3452590309776773
- -2.1850961890098866
- -1.0262570552170214
- -1.1541622643846667
- 1.759355437119404
- -0.7241796996179897
velocity:
- 2.4389514858296427e-07
- 1.3567993407087417e-07
- -7.195420460082367e-08
- 2.6750270197715315e-08
- 4.2603839135200165e-07
- -3.564026874067429e-07
effort:
- 0.0
- 0.0
- 0.0
- 0.0
- 0.0
- 0.0
---
header:
  stamp:
    sec: 864
    nanosec: 242000000
  frame_id: ''
name:
- ur_left_shoulder_pan_joint
- ur_left_elbow_joint
- ur_left_wrist_1_joint
- ur_left_shoulder_lift_joint
- ur_left_wrist_2_joint
- ur_left_wrist_3_joint
position:
- -1.3452590357845788
- -2.1850961573876733
- -1.026257081758386
- -1.154162271071334
- 1.759355450869319
- -0.7241796925507975
velocity:
- 2.550605050293792e-07
- 1.3571837160099192e-07
- -6.997409477546182e-08
- 2.7508441412123946e-08
- 4.39507438751073e-07
- -3.6890638952788916e-07
effort:
- 0.0
- 0.0
- 0.0
- 0.0
- 0.0
- 0.0
---
header:
  stamp:
    sec: 864
    nanosec: 246000000
  frame_id: ''
name:
- ur_left_shoulder_pan_joint
- ur_left_elbow_joint
- ur_left_wrist_1_joint
- ur_left_shoulder_lift_joint
- ur_left_wrist_2_joint
- ur_left_wrist_3_joint
position:
- -1.345259040562167
- -2.1850961257522954
- -1.0262571083023335
- -1.15416227776211
- 1.7593554646732406
- -0.7241796855166882
velocity:
- 2.6076714954146084e-07
- 1.3876469077251885e-07
- -7.108138897350948e-08
- 2.696937571115413e-08
- 4.5097406605984155e-07
- -3.7558186473338904e-07
effort:
- 0.0
- 0.0
- 0.0
- 0.0
- 0.0
- 0.0
---
header:
  stamp:
    sec: 864
    nanosec: 250000000
  frame_id: ''
name:
- ur_left_shoulder_pan_joint
- ur_left_elbow_joint
- ur_left_wrist_1_joint
- ur_left_shoulder_lift_joint
- ur_left_wrist_2_joint
- ur_left_wrist_3_joint
position:
- -1.3452590453236488
- -2.1850960941088005
- -1.0262571348487235
- -1.1541622844547155
- 1.7593554785095789
- -0.7241796785013221
velocity:
- 2.6394633026256444e-07
- 1.403875836568768e-07
- -7.156357563696152e-08
- 2.6589912557796574e-08
- 4.575034077183187e-07
- -3.793043315858538e-07
effort:
- 0.0
- 0.0
- 0.0
- 0.0
- 0.0
- 0.0
---
header:
  stamp:
    sec: 864
    nanosec: 254000000
  frame_id: ''
name:
- ur_left_shoulder_pan_joint
- ur_left_elbow_joint
- ur_left_wrist_1_joint
- ur_left_shoulder_lift_joint
- ur_left_wrist_2_joint
- ur_left_wrist_3_joint
position:
- -1.345259050076114
- -2.1850960624607083
- -1.0262571613964635
- -1.1541622911483957
- 1.7593554923646115
- -0.7241796714965538
velocity:
- 2.6574518234993525e-07
- 1.413041923059409e-07
- -7.183042806972127e-08
- 2.6372989217907998e-08
- 4.6125413788092284e-07
- -3.814236130488483e-07
effort:
- 0.0
- 0.0
- 0.0
- 0.0
- 0.0
- 0.0
---
header:
  stamp:
    sec: 864
    nanosec: 258000000
  frame_id: ''
name:
- ur_left_shoulder_pan_joint
- ur_left_elbow_joint
- ur_left_wrist_1_joint
- ur_left_shoulder_lift_joint
- ur_left_wrist_2_joint
- ur_left_wrist_3_joint
position:
- -1.3452590548234595
- -2.1850960308100067
- -1.0262571879449656
- -1.1541622978426942
- 1.7593555062303254
- -0.7241796644978198
velocity:
- 2.667687180376465e-07
- 1.418257393159404e-07
- -7.198169645688228e-08
- 2.6249182428734905e-08
- 4.633952172832081e-07
- -3.826303240191233e-07
effort:
- 0.0
- 0.0
- 0.0
- 0.0
- 0.0
- 0.0
---
header:
  stamp:
    sec: 864
    nanosec: 262000000
  frame_id: ''
name:
- ur_left_shoulder_pan_joint
- ur_left_elbow_joint
- ur_left_wrist_1_joint
- ur_left_shoulder_lift_joint
- ur_left_wrist_2_joint
- ur_left_wrist_3_joint
position:
- -1.3452590595678866
- -2.1850959991578183
- -1.0262572144938993
- -1.1541623045373461
- 1.7593555201021358
- -0.7241796575025257
velocity:
- 2.6735174416507015e-07
- 1.4212291206696423e-07
- -7.206810194461807e-08
- 2.617883232823857e-08
- 4.6461615160165915e-07
- -3.8331859201024184e-07
effort:
- 0.0
- 0.0
- 0.0
- 0.0
- 0.0
- 0.0
---
header:
  stamp:
    sec: 864
    nanosec: 268000000
  frame_id: ''
name:
- ur_left_shoulder_pan_joint
- ur_left_elbow_joint
- ur_left_wrist_1_joint
- ur_left_shoulder_lift_joint
- ur_left_wrist_2_joint
- ur_left_wrist_3_joint
position:
- -1.3452590666816469
- -2.1850959516780675
- -1.0262572543177306
- -1.1541623145796722
- 1.7593555409158723
- -0.7241796470129795
velocity:
- 2.677920980849223e-07
- 1.4234752326594594e-07
- -7.213339391563539e-08
- 2.6125609166892526e-08
- 4.6553825050272515e-07
- -3.838379698678499e-07
effort:
- 0.0
- 0.0
- 0.0
- 0.0
- 0.0
- 0.0
---
header:
  stamp:
    sec: 864
    nanosec: 272000000
  frame_id: ''
name:
- ur_left_shoulder_pan_joint
- ur_left_elbow_joint
- ur_left_wrist_1_joint
- ur_left_shoulder_lift_joint
- ur_left_wrist_2_joint
- ur_left_wrist_3_joint
position:
- -1.3452590714231554
- -2.1850959200243913
- -1.0262572808671013
- -1.1541623212746777
- 1.7593555547937845
- -0.7241796400211262
velocity:
- 2.679351554848614e-07
- 1.4242008426592408e-07
- -7.215418342980407e-08
- 2.610831920244294e-08
- 4.6583778387318223e-07
- -3.840068914199181e-07
effort:
- 0.0
- 0.0
- 0.0
- 0.0
- 0.0
- 0.0
---
header:
  stamp:
    sec: 864
    nanosec: 276000000
  frame_id: ''
name:
- ur_left_shoulder_pan_joint
- ur_left_elbow_joint
- ur_left_wrist_1_joint
- ur_left_shoulder_lift_joint
- ur_left_wrist_2_joint
- ur_left_wrist_3_joint
position:
- -1.3452590761642553
- -2.1850958883705065
- -1.0262573074165342
- -1.154162327969731
- 1.7593555686725475
- -0.7241796330297543
velocity:
- 2.6801668835606146e-07
- 1.4246192445918774e-07
- -7.216675623333996e-08
- 2.6098464058082868e-08
- 4.660086214542659e-07
- -3.8410293370210244e-07
effort:
- 0.0
- 0.0
- 0.0
- 0.0
- 0.0
- 0.0
---
header:
  stamp:
    sec: 864
    nanosec: 280000000
  frame_id: ''
name:
- ur_left_shoulder_pan_joint
- ur_left_elbow_joint
- ur_left_wrist_1_joint
- ur_left_shoulder_lift_joint
- ur_left_wrist_2_joint
- ur_left_wrist_3_joint
position:
- -1.3452590794519348
- -2.1850958630097246
- -1.0262573285431777
- -1.154162333336185
- 1.7593555811718895
- -0.7241796281667527
velocity:
- 1.7241907507890542e-06
- -6.161711567153638e-06
- 5.360446454553753e-06
- 1.356565221098635e-06
- -9.166526061571111e-07
- -2.5157145916062236e-06
effort:
- 0.0
- 0.0
- 0.0
- 0.0
- 0.0
- 0.0
---
header:
  stamp:
    sec: 864
    nanosec: 284000000
  frame_id: ''
name:
- ur_left_shoulder_pan_joint
- ur_left_elbow_joint
- ur_left_wrist_1_joint
- ur_left_shoulder_lift_joint
- ur_left_wrist_2_joint
- ur_left_wrist_3_joint
position:
- -1.3452590842003196
- -2.185095832741643
- -1.0262573540210234
- -1.1541623397148746
- 1.7593555934314802
- -0.7241796210713334
velocity:
- 1.7364789281955446e-07
- 2.201035995399065e-07
- -1.7508688868664512e-07
- 4.029249428968259e-08
- 4.030146073118637e-07
- -2.9961166996063593e-07
effort:
- 0.0
- 0.0
- 0.0
- 0.0
- 0.0
- 0.0
---
header:
  stamp:
    sec: 864
    nanosec: 288000000
  frame_id: ''
name:
- ur_left_shoulder_pan_joint
- ur_left_elbow_joint
- ur_left_wrist_1_joint
- ur_left_shoulder_lift_joint
- ur_left_wrist_2_joint
- ur_left_wrist_3_joint
position:
- -1.3452590890555398
- -2.1850958012342323
- -1.0262573804630275
- -1.1541623463980974
- 1.7593556071274774
- -0.7241796139737522
velocity:
- 2.438952995262457e-07
- 1.3568030858092845e-07
- -7.195461859416312e-08
- 2.675014369231067e-08
- 4.2603841483111904e-07
- -3.564025209339994e-07
effort:
- 0.0
- 0.0
- 0.0
- 0.0
- 0.0
- 0.0
---
header:
  stamp:
    sec: 864
    nanosec: 292000000
  frame_id: ''
name:
- ur_left_shoulder_pan_joint
- ur_left_elbow_joint
- ur_left_wrist_1_joint
- ur_left_shoulder_lift_joint
- ur_left_wrist_2_joint
- ur_left_wrist_3_joint
position:
- -1.3452590938624396
- -2.1850957696120137
- -1.0262574070044117
- -1.1541623530847647
- 1.7593556208773888
- -0.7241796069065698
velocity:
- 2.550608207831115e-07
- 1.35718446773285e-07
- -6.997396348126367e-08
- 2.7508315266195885e-08
- 4.3950707567343474e-07
- -3.6890604185491186e-07
effort:
- 0.0
- 0.0
- 0.0
- 0.0
- 0.0
- 0.0
---
header:
  stamp:
    sec: 864
    nanosec: 294000000
  frame_id: ''
name:
- ur_left_shoulder_pan_joint
- ur_left_elbow_joint
- ur_left_wrist_1_joint
- ur_left_shoulder_lift_joint
- ur_left_wrist_2_joint
- ur_left_wrist_3_joint
position:
- -1.3452590962538866
- -2.185095753795638
- -1.0262574202759858
- -1.1541623564298897
- 1.7593556277741014
- -0.7241796033864372
velocity:
- 2.583068674797936e-07
- 1.375553621744837e-07
- -7.07322154668417e-08
- 2.7245196825466555e-08
- 4.461085978780275e-07
- -3.727369488665134e-07
effort:
- 0.0
- 0.0
- 0.0
- 0.0
- 0.0
- 0.0
---
header:
  stamp:
    sec: 864
    nanosec: 300000000
  frame_id: ''
name:
- ur_left_shoulder_pan_joint
- ur_left_elbow_joint
- ur_left_wrist_1_joint
- ur_left_shoulder_lift_joint
- ur_left_wrist_2_joint
- ur_left_wrist_3_joint
position:
- -1.3452591034015042
- -2.1850957063331293
- -1.0262574600947882
- -1.1541623664681444
- 1.7593556485176398
- -0.7241795928571149
velocity:
- 2.6394660413254567e-07
- 1.4038783065875377e-07
- -7.156364979863538e-08
- 2.6589778963576128e-08
- 4.575030612292472e-07
- -3.7930414916315716e-07
effort:
- 0.0
- 0.0
- 0.0
- 0.0
- 0.0
- 0.0
---
header:
  stamp:
    sec: 864
    nanosec: 304000000
  frame_id: ''
name:
- ur_left_shoulder_pan_joint
- ur_left_elbow_joint
- ur_left_wrist_1_joint
- ur_left_shoulder_lift_joint
- ur_left_wrist_2_joint
- ur_left_wrist_3_joint
position:
- -1.3452591081539675
- -2.1850956746850336
- -1.0262574866425496
- -1.1541623731618247
- 1.7593556623726672
- -0.7241795858523572
velocity:
- 2.657453963104563e-07
- 1.413042856598915e-07
- -7.183053781853714e-08
- 2.637305347931914e-08
- 4.612539242050319e-07
- -3.8142341539839484e-07
effort:
- 0.0
- 0.0
- 0.0
- 0.0
- 0.0
- 0.0
---
header:
  stamp:
    sec: 864
    nanosec: 308000000
  frame_id: ''
name:
- ur_left_shoulder_pan_joint
- ur_left_elbow_joint
- ur_left_wrist_1_joint
- ur_left_shoulder_lift_joint
- ur_left_wrist_2_joint
- ur_left_wrist_3_joint
position:
- -1.3452591129013114
- -2.1850956430343267
- -1.0262575131910712
- -1.154162379856125
- 1.7593556762383793
- -0.7241795788536338
velocity:
- 2.667688818815538e-07
- 1.4182583859142933e-07
- -7.198208267478677e-08
- 2.6249265340074382e-08
- 4.6339503656517434e-07
- -3.8263056842885535e-07
effort:
- 0.0
- 0.0
- 0.0
- 0.0
- 0.0
- 0.0
---
header:
  stamp:
    sec: 864
    nanosec: 312000000
  frame_id: ''
name:
- ur_left_shoulder_pan_joint
- ur_left_elbow_joint
- ur_left_wrist_1_joint
- ur_left_shoulder_lift_joint
- ur_left_wrist_2_joint
- ur_left_wrist_3_joint
position:
- -1.345259117645735
- -2.185095611382133
- -1.026257539740028
- -1.1541623865507769
- 1.7593556901101843
- -0.7241795718583495
velocity:
- 2.673520152715414e-07
- 1.4212298936241506e-07
- -7.206832874302805e-08
- 2.6178814450379524e-08
- 4.646158935229015e-07
- -3.83318370161503e-07
effort:
- 0.0
- 0.0
- 0.0
- 0.0
- 0.0
- 0.0
---
header:
  stamp:
    sec: 864
    nanosec: 316000000
  frame_id: ''
name:
- ur_left_shoulder_pan_joint
- ur_left_elbow_joint
- ur_left_wrist_1_joint
- ur_left_shoulder_lift_joint
- ur_left_wrist_2_joint
- ur_left_wrist_3_joint
position:
- -1.3452591223884975
- -2.185095579729092
- -1.02625756628923
- -1.1541623932456295
- 1.7593557039854657
- -0.7241795648650244
velocity:
- 2.67684466466601e-07
- 1.4229253265024285e-07
- -7.211765267659895e-08
- 2.6138571120734944e-08
- 4.6531183011201444e-07
- -3.83710268731588e-07
effort:
- 0.0
- 0.0
- 0.0
- 0.0
- 0.0
- 0.0
---
header:
  stamp:
    sec: 864
    nanosec: 320000000
  frame_id: ''
name:
- ur_left_shoulder_pan_joint
- ur_left_elbow_joint
- ur_left_wrist_1_joint
- ur_left_shoulder_lift_joint
- ur_left_wrist_2_joint
- ur_left_wrist_3_joint
position:
- -1.3452591271303116
- -2.1850955480755676
- -1.0262575928385758
- -1.1541623999405959
- 1.7593557178627295
- -0.7241795578728176
velocity:
- 2.678739796099721e-07
- 1.4238903128661705e-07
- -7.214550722394879e-08
- 2.611559979098984e-08
- 4.6570850536053225e-07
- -3.8393377174080373e-07
effort:
- 0.0
- 0.0
- 0.0
- 0.0
- 0.0
- 0.0
---
header:
  stamp:
    sec: 864
    nanosec: 324000000
  frame_id: ''
name:
- ur_left_shoulder_pan_joint
- ur_left_elbow_joint
- ur_left_wrist_1_joint
- ur_left_shoulder_lift_joint
- ur_left_wrist_2_joint
- ur_left_wrist_3_joint
position:
- -1.3452591318715839
- -2.185095516421767
- -1.0262576193880015
- -1.1541624066356297
- 1.7593557317411213
- -0.7241795508812476
velocity:
- 2.6798201043815583e-07
- 1.4244388944327028e-07
- -7.216142488823641e-08
- 2.6102691247431936e-08
- 4.659346840433147e-07
- -3.8406105013317704e-07
effort:
- 0.0
- 0.0
- 0.0
- 0.0
- 0.0
- 0.0
---
header:
  stamp:
    sec: 864
    nanosec: 330000000
  frame_id: ''
name:
- ur_left_shoulder_pan_joint
- ur_left_elbow_joint
- ur_left_wrist_1_joint
- ur_left_shoulder_lift_joint
- ur_left_wrist_2_joint
- ur_left_wrist_3_joint
position:
- -1.3452591375297724
- -2.185095475234018
- -1.0262576537893935
- -1.1541624153496157
- 1.7593557511799185
- -0.7241795425226156
velocity:
- 1.7241910146638985e-06
- -6.161712671194418e-06
- 5.360450486714463e-06
- 1.3565653622426078e-06
- -9.166529718193892e-07
- -2.515711818246936e-06
effort:
- 0.0
- 0.0
- 0.0
- 0.0
- 0.0
- 0.0
---
header:
  stamp:
    sec: 864
    nanosec: 334000000
  frame_id: ''
name:
- ur_left_shoulder_pan_joint
- ur_left_elbow_joint
- ur_left_wrist_1_joint
- ur_left_shoulder_lift_joint
- ur_left_wrist_2_joint
- ur_left_wrist_3_joint
position:
- -1.3452591422781555
- -2.185095444965931
- -1.0262576792672569
- -1.1541624217283035
- 1.7593557634395038
- -0.7241795354272078
velocity:
- 1.7364819993178264e-07
- 2.2010356065196562e-07
- -1.7508691590464452e-07
- 4.0292451774109667e-08
- 4.030141122443217e-07
- -2.9961153601580715e-07
effort:
- 0.0
- 0.0
- 0.0
- 0.0
- 0.0
- 0.0
---
header:
  stamp:
    sec: 864
    nanosec: 338000000
  frame_id: ''
name:
- ur_left_shoulder_pan_joint
- ur_left_elbow_joint
- ur_left_wrist_1_joint
- ur_left_shoulder_lift_joint
- ur_left_wrist_2_joint
- ur_left_wrist_3_joint
position:
- -1.345259147133374
- -2.185095413458516
- -1.0262577057092805
- -1.1541624284115264
- 1.7593557771354975
- -0.7241795283296364
velocity:
- 2.4389549453123076e-07
- 1.356800666046633e-07
- -7.195455157590095e-08
- 2.67503243257443e-08
- 4.260382656942094e-07
- -3.564022158372028e-07
effort:
- 0.0
- 0.0
- 0.0
- 0.0
- 0.0
- 0.0
---
header:
  stamp:
    sec: 864
    nanosec: 342000000
  frame_id: ''
name:
- ur_left_shoulder_pan_joint
- ur_left_elbow_joint
- ur_left_wrist_1_joint
- ur_left_shoulder_lift_joint
- ur_left_wrist_2_joint
- ur_left_wrist_3_joint
position:
- -1.3452591519402701
- -2.185095381836291
- -1.026257732250686
- -1.1541624350981936
- 1.7593557908854036
- -0.7241795212624638
velocity:
- 2.5506101598189005e-07
- 1.3571851713055236e-07
- -6.997436746171461e-08
- 2.7508600861638978e-08
- 4.3950682981733055e-07
- -3.689059612549998e-07
effort:
- 0.0
- 0.0
- 0.0
- 0.0
- 0.0
- 0.0
---
header:
  stamp:
    sec: 864
    nanosec: 346000000
  frame_id: ''
name:
- ur_left_shoulder_pan_joint
- ur_left_elbow_joint
- ur_left_wrist_1_joint
- ur_left_shoulder_lift_joint
- ur_left_wrist_2_joint
- ur_left_wrist_3_joint
position:
- -1.345259156717853
- -2.1850953502009034
- -1.0262577587946744
- -1.1541624417889695
- 1.759355804689318
- -0.7241795142283749
velocity:
- 2.6076760525462215e-07
- 1.3876480556698085e-07
- -7.108190263091105e-08
- 2.696942515254512e-08
- 4.5097375582201327e-07
- -3.755816293088432e-07
effort:
- 0.0
- 0.0
- 0.0
- 0.0
- 0.0
- 0.0
---
header:
  stamp:
    sec: 864
    nanosec: 350000000
  frame_id: ''
name:
- ur_left_shoulder_pan_joint
- ur_left_elbow_joint
- ur_left_wrist_1_joint
- ur_left_shoulder_lift_joint
- ur_left_wrist_2_joint
- ur_left_wrist_3_joint
position:
- -1.3452591614793294
- -2.185095318557398
- -1.0262577853411052
- -1.1541624484815733
- 1.7593558185256475
- -0.7241795072130284
velocity:
- 2.6394674450403683e-07
- 1.4038769592088798e-07
- -7.156388423205507e-08
- 2.659000385672604e-08
- 4.5750280742939126e-07
- -3.7930409893688727e-07
effort:
- 0.0
- 0.0
- 0.0
- 0.0
- 0.0
- 0.0
---
header:
  stamp:
    sec: 864
    nanosec: 354000000
  frame_id: ''
name:
- ur_left_shoulder_pan_joint
- ur_left_elbow_joint
- ur_left_wrist_1_joint
- ur_left_shoulder_lift_joint
- ur_left_wrist_2_joint
- ur_left_wrist_3_joint
position:
- -1.345259166231791
- -2.1850952869092968
- -1.026257811888886
- -1.1541624551752536
- 1.7593558323806677
- -0.7241795002082796
velocity:
- 2.6574579731127975e-07
- 1.4130438096769113e-07
- -7.183070411785018e-08
- 2.6372846770932395e-08
- 4.6125354633019205e-07
- -3.814227755130938e-07
effort:
- 0.0
- 0.0
- 0.0
- 0.0
- 0.0
- 0.0
---
header:
  stamp:
    sec: 864
    nanosec: 360000000
  frame_id: ''
name:
- ur_left_shoulder_pan_joint
- ur_left_elbow_joint
- ur_left_wrist_1_joint
- ur_left_shoulder_lift_joint
- ur_left_wrist_2_joint
- ur_left_wrist_3_joint
position:
- -1.3452591733516122
- -2.1850952394326235
- -1.0262578517118754
- -1.1541624652168443
- 1.7593558531817122
- -0.7241794897116094
velocity:
- 2.6710138717444655e-07
- 1.4199528898776015e-07
- -7.203149840566921e-08
- 2.6209250023665416e-08
- 4.6409025088232153e-07
- -3.830219171239857e-07
effort:
- 0.0
- 0.0
- 0.0
- 0.0
- 0.0
- 0.0
---
header:
  stamp:
    sec: 864
    nanosec: 364000000
  frame_id: ''
name:
- ur_left_shoulder_pan_joint
- ur_left_elbow_joint
- ur_left_wrist_1_joint
- ur_left_shoulder_lift_joint
- ur_left_wrist_2_joint
- ur_left_wrist_3_joint
position:
- -1.345259178095087
- -2.1850952077799413
- -1.0262578782609921
- -1.15416247191161
- 1.759355867055496
- -0.7241794827174521
velocity:
- 2.675416033745563e-07
- 1.4221963067290113e-07
- -7.209680110301053e-08
- 2.6156036598398586e-08
- 4.650122284354751e-07
- -3.8354151647899374e-07
effort:
- 0.0
- 0.0
- 0.0
- 0.0
- 0.0
- 0.0
---
header:
  stamp:
    sec: 864
    nanosec: 368000000
  frame_id: ''
name:
- ur_left_shoulder_pan_joint
- ur_left_elbow_joint
- ur_left_wrist_1_joint
- ur_left_shoulder_lift_joint
- ur_left_wrist_2_joint
- ur_left_wrist_3_joint
position:
- -1.3452591828373062
- -2.1850951761266195
- -1.026257904810297
- -1.1541624786065283
- 1.7593558809319019
- -0.7241794757247746
velocity:
- 2.677926037037587e-07
- 1.4234760144553566e-07
- -7.213369889675358e-08
- 2.6125599021543426e-08
- 4.655376766763374e-07
- -3.838375745721139e-07
effort:
- 0.0
- 0.0
- 0.0
- 0.0
- 0.0
- 0.0
---
header:
  stamp:
    sec: 864
    nanosec: 370000000
  frame_id: ''
name:
- ur_left_shoulder_pan_joint
- ur_left_elbow_joint
- ur_left_wrist_1_joint
- ur_left_shoulder_lift_joint
- ur_left_wrist_2_joint
- ur_left_wrist_3_joint
position:
- -1.3452591852081262
- -2.1850951602998094
- -1.0262579180849922
- -1.154162481954023
- 1.759355887870714
- -0.7241794722287791
velocity:
- 2.6787415676624264e-07
- 1.4238896671753815e-07
- -7.214572392687557e-08
- 2.6115806466821375e-08
- 4.6570818163470325e-07
- -3.8393368522504183e-07
effort:
- 0.0
- 0.0
- 0.0
- 0.0
- 0.0
- 0.0
---
header:
  stamp:
    sec: 864
    nanosec: 372000000
  frame_id: ''
name:
- ur_left_shoulder_pan_joint
- ur_left_elbow_joint
- ur_left_wrist_1_joint
- ur_left_shoulder_lift_joint
- ur_left_wrist_2_joint
- ur_left_wrist_3_joint
position:
- -1.3452591875788111
- -2.1850951444729336
- -1.0262579313597087
- -1.1541624853015338
- 1.7593558948098051
- -0.7241794687329408
velocity:
- 2.6793576147000495e-07
- 1.4242055008101154e-07
- -7.215512447528923e-08
- 2.610824135118378e-08
- 4.65837003252393e-07
- -3.840063326363165e-07
effort:
- 0.0
- 0.0
- 0.0
- 0.0
- 0.0
- 0.0
---
header:
  stamp:
    sec: 864
    nanosec: 376000000
  frame_id: ''
name:
- ur_left_shoulder_pan_joint
- ur_left_elbow_joint
- ur_left_wrist_1_joint
- ur_left_shoulder_lift_joint
- ur_left_wrist_2_joint
- ur_left_wrist_3_joint
position:
- -1.3452591923199058
- -2.185095112819038
- -1.0262579579091806
- -1.1541624919965854
- 1.7593559086885575
- -0.7241794617415875
velocity:
- 2.680172850709234e-07
- 1.4246203696433364e-07
- -7.216688753212268e-08
- 2.609857991586735e-08
- 4.6600788771434723e-07
- -3.841023267874638e-07
effort:
- 0.0
- 0.0
- 0.0
- 0.0
- 0.0
- 0.0
---
header:
  stamp:
    sec: 864
    nanosec: 380000000
  frame_id: ''
name:
- ur_left_shoulder_pan_joint
- ur_left_elbow_joint
- ur_left_wrist_1_joint
- ur_left_shoulder_lift_joint
- ur_left_wrist_2_joint
- ur_left_wrist_3_joint
position:
- -1.3452591956075808
- -2.185095087458249
- -1.0262579790358561
- -1.1541624973630393
- 1.7593559211878906
- -0.7241794568785993
velocity:
- 1.7241912353144722e-06
- -6.161713589260465e-06
- 5.3604543251522245e-06
- 1.3565655349676475e-06
- -9.166532573691063e-07
- -2.5157088599575012e-06
effort:
- 0.0
- 0.0
- 0.0
- 0.0
- 0.0
- 0.0
---
header:
  stamp:
    sec: 864
    nanosec: 384000000
  frame_id: ''
name:
- ur_left_shoulder_pan_joint
- ur_left_elbow_joint
- ur_left_wrist_1_joint
- ur_left_shoulder_lift_joint
- ur_left_wrist_2_joint
- ur_left_wrist_3_joint
position:
- -1.345259200355962
- -2.185095057190157
- -1.0262580045137408
- -1.1541625037417271
- 1.7593559334474724
- -0.7241794497832013
velocity:
- 1.73648443678712e-07
- 2.2010359948183488e-07
- -1.7508723082913464e-07
- 4.029257323280695e-08
- 4.0301406338829285e-07
- -2.9961137330242266e-07
effort:
- 0.0
- 0.0
- 0.0
- 0.0
- 0.0
- 0.0
---
header:
  stamp:
    sec: 864
    nanosec: 388000000
  frame_id: ''
name:
- ur_left_shoulder_pan_joint
- ur_left_elbow_joint
- ur_left_wrist_1_joint
- ur_left_shoulder_lift_joint
- ur_left_wrist_2_joint
- ur_left_wrist_3_joint
position:
- -1.3452592052111787
- -2.1850950256827364
- -1.0262580309557858
- -1.1541625104249482
- 1.7593559471434643
- -0.7241794426856396
velocity:
- 2.4389580199600695e-07
- 1.3568038354183874e-07
- -7.195491665501653e-08
- 2.6750321693029153e-08
- 4.2603801406740356e-07
- -3.564018903319001e-07
effort:
- 0.0
- 0.0
- 0.0
- 0.0
- 0.0
- 0.0
---
header:
  stamp:
    sec: 864
    nanosec: 394000000
  frame_id: ''
name:
- ur_left_shoulder_pan_joint
- ur_left_elbow_joint
- ur_left_wrist_1_joint
- ur_left_shoulder_lift_joint
- ur_left_wrist_2_joint
- ur_left_wrist_3_joint
position:
- -1.3452592124095184
- -2.185094978244127
- -1.0262580707688045
- -1.1541625204567405
- 1.759355967790074
- -0.7241794320983539
velocity:
- 2.583073757741279e-07
- 1.37555344990025e-07
- -7.073210008805283e-08
- 2.7245297981536345e-08
- 4.461080658531137e-07
- -3.7273639867687853e-07
effort:
- 0.0
- 0.0
- 0.0
- 0.0
- 0.0
- 0.0
---
header:
  stamp:
    sec: 864
    nanosec: 398000000
  frame_id: ''
name:
- ur_left_shoulder_pan_joint
- ur_left_elbow_joint
- ur_left_wrist_1_joint
- ur_left_shoulder_lift_joint
- ur_left_wrist_2_joint
- ur_left_wrist_3_joint
position:
- -1.3452592171778588
- -2.1850949466041083
- -1.026258097314221
- -1.1541625271485219
- 1.7593559816124111
- -0.7241794250750075
velocity:
- 2.6258539139796253e-07
- 1.3969367375074472e-07
- -7.135885830914541e-08
- 2.675068292102231e-08
- 4.5468040447533935e-07
- -3.777022114141688e-07
effort:
- 0.0
- 0.0
- 0.0
- 0.0
- 0.0
- 0.0
---
header:
  stamp:
    sec: 864
    nanosec: 402000000
  frame_id: ''
name:
- ur_left_shoulder_pan_joint
- ur_left_elbow_joint
- ur_left_wrist_1_joint
- ur_left_shoulder_lift_joint
- ur_left_wrist_2_joint
- ur_left_wrist_3_joint
position:
- -1.345259221934191
- -2.1850949149579755
- -1.0262581238614459
- -1.154162533841735
- 1.7593559954593774
- -0.7241794180657122
velocity:
- 2.649726871606903e-07
- 1.40910420578234e-07
- -7.171619641298322e-08
- 2.6466167328327305e-08
- 4.5963889693970245e-07
- -3.8051165875499285e-07
effort:
- 0.0
- 0.0
- 0.0
- 0.0
- 0.0
- 0.0
---
header:
  stamp:
    sec: 864
    nanosec: 404000000
  frame_id: ''
name:
- ur_left_shoulder_pan_joint
- ur_left_elbow_joint
- ur_left_wrist_1_joint
- ur_left_shoulder_lift_joint
- ur_left_wrist_2_joint
- ur_left_wrist_3_joint
position:
- -1.3452592243095887
- -2.1850948991334977
- -1.0262581371354695
- -1.1541625371886755
- 1.7593560023886203
- -0.7241794145643228
velocity:
- 2.657458756339903e-07
- 1.4130434604266456e-07
- -7.183079797412363e-08
- 2.637301069053112e-08
- 4.612534603440676e-07
- -3.8142284991035495e-07
effort:
- 0.0
- 0.0
- 0.0
- 0.0
- 0.0
- 0.0
---
header:
  stamp:
    sec: 864
    nanosec: 408000000
  frame_id: ''
name:
- ur_left_shoulder_pan_joint
- ur_left_elbow_joint
- ur_left_wrist_1_joint
- ur_left_shoulder_lift_joint
- ur_left_wrist_2_joint
- ur_left_wrist_3_joint
position:
- -1.3452592290569254
- -2.185094867482781
- -1.0262581636840338
- -1.154162543882974
- 1.7593560162543236
- -0.7241794075656198
velocity:
- 2.6676931007407376e-07
- 1.4182582910515054e-07
- -7.198245619594288e-08
- 2.624947403248754e-08
- 4.6339442861646665e-07
- -3.826301043534846e-07
effort:
- 0.0
- 0.0
- 0.0
- 0.0
- 0.0
- 0.0
---
header:
  stamp:
    sec: 864
    nanosec: 414000000
  frame_id: ''
name:
- ur_left_shoulder_pan_joint
- ur_left_elbow_joint
- ur_left_wrist_1_joint
- ur_left_shoulder_lift_joint
- ur_left_wrist_2_joint
- ur_left_wrist_3_joint
position:
- -1.3452592361728777
- -2.18509482000413
- -1.0262582035076289
- -1.1541625539250318
- 1.7593560370634362
- -0.7241793970735211
velocity:
- 2.67542007795294e-07
- 1.4221972896085655e-07
- -7.209658853272598e-08
- 2.6155791550388128e-08
- 4.6501166645531056e-07
- -3.835411811089536e-07
effort:
- 0.0
- 0.0
- 0.0
- 0.0
- 0.0
- 0.0
---
header:
  stamp:
    sec: 864
    nanosec: 418000000
  frame_id: ''
name:
- ur_left_shoulder_pan_joint
- ur_left_elbow_joint
- ur_left_wrist_1_joint
- ur_left_shoulder_lift_joint
- ur_left_wrist_2_joint
- ur_left_wrist_3_joint
position:
- -1.345259240915095
- -2.1850947883508027
- -1.0262582300569534
- -1.1541625606199502
- 1.7593560509398367
- -0.7241793900808524
velocity:
- 2.6779291795295117e-07
- 1.4234738748341086e-07
- -7.213386982915522e-08
- 2.6125770617613284e-08
- 4.655372865013791e-07
- -3.838371671265446e-07
effort:
- 0.0
- 0.0
- 0.0
- 0.0
- 0.0
- 0.0
---
header:
  stamp:
    sec: 864
    nanosec: 424000000
  frame_id: ''
name:
- ur_left_shoulder_pan_joint
- ur_left_elbow_joint
- ur_left_wrist_1_joint
- ur_left_shoulder_lift_joint
- ur_left_wrist_2_joint
- ur_left_wrist_3_joint
position:
- -1.34525924802718
- -2.1850947408701806
- -1.0262582698811276
- -1.1541625706624752
- 1.75935607175703
- -0.7241793795933127
velocity:
- 2.67982393831396e-07
- 1.4244404564558231e-07
- -7.21618016309597e-08
- 2.610288290484751e-08
- 4.659341573202554e-07
- -3.840610338636639e-07
effort:
- 0.0
- 0.0
- 0.0
- 0.0
- 0.0
- 0.0
---
header:
  stamp:
    sec: 864
    nanosec: 428000000
  frame_id: ''
name:
- ur_left_shoulder_pan_joint
- ur_left_elbow_joint
- ur_left_wrist_1_joint
- ur_left_shoulder_lift_joint
- ur_left_wrist_2_joint
- ur_left_wrist_3_joint
position:
- -1.3452592527681415
- -2.1850947092162123
- -1.0262582964306404
- -1.1541625773575446
- 1.7593560856360542
- -0.7241793726021273
velocity:
- 2.6804404214126234e-07
- 1.424757086396634e-07
